City,Lat,Lng,Max Temp,Humidity,Cloudiness,Wind Speed,Country,Date
Vao,-22.67,167.48,74.43,84,0,15.21,NC,1604208161
Vaini,-21.2,-175.2,75.2,83,75,10.29,TO,1604208117
Tiksi,71.69,128.87,-5.21,90,54,8.34,RU,1604208161
Ilulissat,69.22,-51.1,19.4,73,100,13.87,GL,1604208162
Hobart,-42.88,147.33,60.01,67,75,9.17,AU,1604208102
Mataura,-46.19,168.86,48.99,93,100,10.0,NZ,1604208102
Bluff,-46.6,168.33,48.99,93,94,10.0,NZ,1604208163
Norman Wells,65.28,-126.83,-2.2,84,75,6.93,CA,1604208116
Havøysund,71.0,24.66,39.2,64,0,14.99,NO,1604208163
Serra Branca,-6.53,-38.27,73.0,80,71,7.38,BR,1604208164
Saint-Philippe,-21.36,55.77,75.2,57,40,9.17,RE,1604208164
Provideniya,64.38,-173.3,22.41,88,0,5.97,RU,1604208164
Busselton,-33.65,115.33,57.99,82,100,8.77,AU,1604208164
Longyearbyen,78.22,15.64,21.2,79,20,13.87,SJ,1604208165
Hambantota,6.12,81.12,86.13,64,58,4.63,LK,1604208151
Lososina,49.0,140.31,49.06,62,85,5.55,RU,1604208165
Jamestown,42.1,-79.24,39.0,80,1,10.29,US,1604208165
San Patricio,28.02,-97.52,64.99,87,1,4.94,US,1604208166
Itarema,-2.92,-39.92,77.88,87,47,11.45,BR,1604208166
Mombasa,-4.05,39.66,78.8,88,40,3.36,KE,1604207955
Havelock,34.88,-76.9,57.2,82,1,3.36,US,1604208167
Bengkulu,-3.8,102.27,84.72,64,97,6.71,ID,1604207974
Saint-Pierre,-21.34,55.48,75.2,57,40,9.17,RE,1604208165
Krasnoarmeyskiy,47.01,42.21,54.66,93,58,6.62,RU,1604208167
Wanning,18.8,110.4,79.21,70,22,13.85,CN,1604208168
Hilo,19.73,-155.09,78.8,78,90,6.93,US,1604208168
Praia da Vitória,38.73,-27.07,69.8,94,75,20.18,PT,1604208120
Pemangkat,1.17,108.97,83.71,73,96,7.25,ID,1604208169
Rikitea,-23.12,-134.97,75.74,74,0,9.53,PF,1604208109
Dakar,14.69,-17.44,73.4,94,20,9.17,SN,1604208008
Cape Town,-33.93,18.42,63.0,55,0,13.87,ZA,1604208128
Yellowknife,62.46,-114.35,23.0,92,90,14.99,CA,1604208140
Punta Arenas,-53.15,-70.92,44.6,87,0,9.17,CL,1604207877
Port Blair,11.67,92.75,86.0,74,40,4.7,IN,1604208128
Cidreira,-30.18,-50.21,60.76,76,21,4.79,BR,1604208171
Butaritari,3.07,172.79,81.64,76,100,11.3,KI,1604208172
Yumen,40.28,97.2,49.89,40,94,21.59,CN,1604208172
Caravelas,-17.71,-39.25,72.72,96,100,5.46,BR,1604208121
Albany,42.6,-73.97,33.01,86,0,4.47,US,1604208173
Barentu,15.11,37.59,78.53,37,0,3.11,ER,1604208173
Severo-Kuril'sk,50.68,156.12,42.84,78,26,14.99,RU,1604208173
Yar-Sale,66.83,70.83,28.51,97,35,13.47,RU,1604208174
Kānkon,15.02,74.02,84.2,70,40,4.7,IN,1604208174
Talnakh,69.49,88.4,21.2,85,90,29.08,RU,1604208174
Malbork,54.04,19.03,43.0,100,0,11.39,PL,1604208175
Lourdes,43.1,-0.05,55.4,54,0,11.41,FR,1604208175
Hermanus,-34.42,19.23,63.0,73,13,7.0,ZA,1604208175
Temir,49.14,57.13,46.71,51,72,10.09,KZ,1604208176
Chui,-33.7,-53.46,50.23,88,0,1.45,UY,1604208176
Qaanaaq,77.48,-69.36,4.59,80,0,4.74,GL,1604208177
Barrow,71.29,-156.79,24.8,58,75,8.05,US,1604208177
Urengoy,65.97,78.37,26.29,98,100,8.57,RU,1604208177
Dikson,73.51,80.55,21.79,98,100,7.87,RU,1604208178
Mar del Plata,-38.0,-57.56,54.0,100,0,3.36,AR,1604208178
Zeya,53.75,127.27,29.84,90,100,11.1,RU,1604208178
Dibulla,11.27,-73.31,77.76,80,100,5.48,CO,1604208179
São Filipe,14.9,-24.5,78.42,72,49,7.96,CV,1604208179
Ambon City,-3.7,128.18,83.93,73,15,13.49,ID,1604208179
Taunggyi,20.78,97.03,75.11,71,41,5.06,MM,1604208037
Avarua,-21.21,-159.78,75.2,83,100,11.41,CK,1604208180
Paamiut,61.99,-49.67,24.24,97,100,9.13,GL,1604208181
Bowen,-20.02,148.23,95.0,36,0,12.75,AU,1604208154
Cap Malheureux,-19.98,57.61,75.0,56,17,4.0,MU,1604208181
Atuona,-9.8,-139.03,78.46,73,4,17.98,PF,1604208182
Chokurdakh,70.63,147.92,-9.29,91,97,9.6,RU,1604208182
Vila Velha,-20.33,-40.29,70.0,94,90,9.17,BR,1604208182
Tazovsky,67.47,78.7,21.83,98,100,8.7,RU,1604208160
Coyhaique,-45.58,-72.07,51.8,62,0,6.93,CL,1604208183
Buchanan,5.88,-10.05,76.82,90,30,5.64,LR,1604208183
Kapaa,22.08,-159.32,77.0,78,90,6.93,US,1604208184
George Town,5.41,100.34,86.0,74,20,3.36,MY,1604208184
Clyde River,70.47,-68.59,8.6,84,1,20.8,CA,1604208184
Puerto Ayora,-0.74,-90.35,69.01,93,89,1.99,EC,1604208185
Saldanha,-33.01,17.94,57.2,50,0,3.36,ZA,1604208124
New Norfolk,-42.78,147.06,62.01,58,96,3.0,AU,1604208107
Khandyga,62.67,135.6,-1.64,83,5,1.7,RU,1604208186
Hithadhoo,-0.6,73.08,82.94,75,100,13.04,MV,1604208068
Minsk,53.9,27.57,42.8,100,75,8.95,BY,1604208186
Padang,-0.95,100.35,82.76,69,98,2.55,ID,1604208187
Qaqortoq,60.72,-46.03,26.6,86,56,2.91,GL,1604208187
Faya,18.39,42.45,64.4,53,0,2.44,SA,1604208187
Nome,64.5,-165.41,23.0,67,1,6.93,US,1604208188
Thinadhoo,0.53,72.93,83.64,70,100,4.94,MV,1604208188
Isangel,-19.55,169.27,78.96,74,62,14.88,VU,1604208188
Wilhelmshaven,53.52,8.13,50.0,93,100,8.05,DE,1604208189
Nuquí,5.71,-77.27,77.11,86,100,6.62,CO,1604208189
Ushuaia,-54.8,-68.3,46.4,93,40,5.82,AR,1604208189
Hakkâri Province,37.58,44.17,39.2,48,20,2.24,TR,1604208190
Dogbo,6.82,1.78,73.9,97,28,3.91,BJ,1604208190
Mount Gambier,-37.83,140.77,69.8,52,0,6.93,AU,1604208190
Bobrovka,54.05,61.75,40.32,73,100,5.93,RU,1604208191
Kaitangata,-46.28,169.85,53.01,80,95,8.01,NZ,1604208191
Pánormos,35.42,24.69,64.0,77,75,4.74,GR,1604208191
Halifax,44.65,-63.57,35.6,74,0,4.7,CA,1604208047
Aksu,41.12,80.26,52.75,40,0,2.46,CN,1604208168
Guerrero Negro,27.98,-114.06,68.18,72,61,9.51,MX,1604208192
Celendín,-6.87,-78.15,51.67,63,67,1.7,PE,1604208193
Amahai,-3.33,128.92,84.92,70,15,10.63,ID,1604208193
Kyabram,-36.32,145.05,77.0,24,0,6.85,AU,1604208016
Kahului,20.89,-156.47,80.6,69,20,6.93,US,1604208194
Mondolfo,43.75,13.1,51.01,100,90,3.36,IT,1604208194
Cayenne,4.93,-52.33,77.0,100,75,8.23,GF,1604208194
Arraial do Cabo,-22.97,-42.03,70.48,79,37,14.18,BR,1604208194
Otradnoye,59.78,30.82,30.99,100,90,2.24,RU,1604208195
Tuktoyaktuk,69.45,-133.04,-2.2,84,75,4.7,CA,1604208196
Pavlivka,49.44,28.46,46.4,93,75,13.42,UA,1604208196
Richards Bay,-28.78,32.04,65.08,79,100,5.3,ZA,1604208196
College,64.86,-147.8,9.0,84,75,0.74,US,1604208180
Upernavik,72.79,-56.15,15.33,94,99,10.94,GL,1604208131
Tateyama,34.98,139.87,69.01,59,75,9.17,JP,1604208197
Adrar,20.5,-10.07,75.58,19,63,9.37,MR,1604208198
Río Gallegos,-51.62,-69.22,46.4,87,0,4.47,AR,1604208109
Kirakira,-10.45,161.92,84.96,68,60,7.78,SB,1604208199
Alta Floresta,-9.88,-56.09,72.1,96,81,3.38,BR,1604208199
Te Anau,-45.42,167.72,52.74,78,100,4.76,NZ,1604208199
Beringovskiy,63.05,179.32,21.02,96,96,10.0,RU,1604208200
Lebu,-37.62,-73.65,51.03,89,20,4.94,CL,1604208200
Salé,34.04,-6.82,61.0,87,75,3.36,MA,1604208200
Pevek,69.7,170.31,15.84,93,79,13.31,RU,1604208141
Hong Kong,22.29,114.16,78.8,57,20,9.17,HK,1604208047
Peniche,39.36,-9.38,64.0,86,100,6.35,PT,1604208201
Nikolskoye,59.7,30.79,30.99,100,90,2.24,RU,1604208202
El Alto,-4.27,-81.21,62.06,92,75,14.12,PE,1604208202
Katsuura,35.13,140.3,69.01,67,75,4.7,JP,1604208202
Moussoro,13.64,16.49,76.71,23,0,13.58,TD,1604208203
Khilok,51.37,110.47,22.89,84,100,13.42,RU,1604208203
Ketchikan,55.34,-131.65,48.2,100,90,17.22,US,1604208203
City of San Pedro,14.35,121.02,75.2,88,90,14.99,PH,1604208204
Kyaikkami,16.08,97.57,85.24,67,25,2.33,MM,1604208204
Røros,62.57,11.38,42.8,81,100,24.16,NO,1604208204
Bredasdorp,-34.53,20.04,57.2,82,47,2.24,ZA,1604208112
Khatanga,71.97,102.5,-0.71,89,84,9.19,RU,1604208205
Torbay,47.67,-52.73,34.0,89,75,20.8,CA,1604208205
Port Elizabeth,-33.92,25.57,66.2,77,0,9.17,ZA,1604208108
Shubarshi,48.59,57.19,47.68,50,47,10.11,KZ,1604208206
Fairbanks,64.84,-147.72,9.0,92,90,0.69,US,1604208206
Salinópolis,-0.61,-47.36,79.14,82,25,9.4,BR,1604208207
Airai,-8.93,125.41,79.07,45,3,3.06,TL,1604208207
Gao,16.64,1.64,74.82,20,0,14.43,ML,1604208207
Payo,-3.75,103.64,91.8,53,80,2.15,ID,1604208208
Kavieng,-2.57,150.8,84.97,71,25,7.25,PG,1604208208
Thompson,55.74,-97.86,1.4,91,5,2.24,CA,1604208101
Kerman,30.28,57.08,55.4,19,0,4.7,IR,1604208209
Hamilton,39.18,-84.53,52.0,61,1,9.17,US,1604208131
Buala,-8.14,159.59,85.17,70,45,3.33,SB,1604208209
De Aar,-30.65,24.01,58.84,65,76,11.81,ZA,1604208210
Mahébourg,-20.41,57.7,73.4,69,40,18.34,MU,1604208210
Pokhara,28.23,83.98,81.82,29,14,4.76,NP,1604208211
Ranong,9.97,98.63,89.6,66,75,4.7,TH,1604208211
Honiara,-9.43,159.95,87.8,70,40,3.36,SB,1604208211
Riyadh,24.69,46.72,62.6,48,0,7.38,SA,1604208004
Trelew,-43.25,-65.31,71.71,22,0,20.42,AR,1604207924
Waipawa,-41.41,175.52,60.8,72,21,23.04,NZ,1604208212
Nouadhibou,20.93,-17.03,69.8,73,0,11.41,MR,1604208213
Vila Franca do Campo,37.72,-25.43,68.0,100,75,17.22,PT,1604208131
Pisco,-13.7,-76.22,64.4,88,90,4.7,PE,1604208213
Oyama,36.3,139.8,70.0,49,75,5.82,JP,1604208214
Ribeira Grande,38.52,-28.7,69.12,92,72,24.96,PT,1604208214
Bambous Virieux,-20.34,57.76,75.0,69,40,18.34,MU,1604208214
Baruun-Urt,46.68,113.28,31.01,72,11,17.18,MN,1604208215
Hay River,60.82,-115.8,28.4,92,100,2.24,CA,1604208126
Port Alfred,-33.59,26.89,65.19,76,36,15.97,ZA,1604208102
Kānker,20.27,81.49,81.12,49,0,4.65,IN,1604208216
Saint George,37.1,-113.58,59.0,19,1,3.51,US,1604208153
Rocha,-34.48,-54.33,46.27,90,0,2.37,UY,1604208217
Teguise,29.06,-13.56,73.4,46,0,9.17,ES,1604208217
Boysun,38.21,67.2,59.4,24,0,2.75,UZ,1604208217
Grindavik,63.84,-22.43,35.6,93,40,10.29,IS,1604208218
Aswān,24.09,32.91,72.68,57,0,6.69,EG,1604208111
Winona,43.97,-91.77,39.99,58,4,5.99,US,1604208115
Lyaskelya,61.77,31.02,34.21,91,2,3.27,RU,1604208219
Soe,-9.86,124.28,88.34,25,39,11.68,ID,1604208219
Kununurra,-15.77,128.73,100.4,29,40,10.29,AU,1604208219
Luwuk,-0.95,122.79,87.48,56,100,8.01,ID,1604208220
Kampot,10.62,104.18,87.8,62,40,1.12,KH,1604208113
Castro,-24.79,-50.01,51.82,92,65,6.8,BR,1604208220
Lagoa,39.05,-27.98,68.63,92,84,29.73,PT,1604208221
Touros,-5.2,-35.46,75.2,94,20,3.36,BR,1604208221
Gilgit,35.92,74.31,57.63,27,0,2.44,PK,1604208221
Cairns,-16.92,145.77,90.0,58,0,11.41,AU,1604208222
Dandong,40.13,124.39,56.39,35,27,12.5,CN,1604208222
Greytown,-29.06,30.59,54.0,96,100,1.74,ZA,1604208223
Gazalkent,41.56,69.77,62.6,16,0,6.93,UZ,1604208223
Iqaluit,63.75,-68.51,1.4,84,40,6.93,CA,1604208224
Anáhuac,27.23,-100.15,64.26,52,30,7.29,MX,1604208224
Yining,29.04,114.56,60.94,91,100,2.06,CN,1604208224
Carnarvon,-24.87,113.63,77.0,57,75,20.8,AU,1604208225
Klaksvík,62.23,-6.59,44.6,93,86,21.92,FO,1604208160
Piranhas,-16.43,-51.82,71.89,90,100,1.63,BR,1604208225
Gaillac,43.9,1.9,48.99,98,80,3.04,FR,1604208226
Puerto Escondido,15.85,-97.07,78.53,73,9,3.83,MX,1604208226
Matara,5.95,80.54,87.49,61,95,7.81,LK,1604208227
Marquette,46.53,-87.63,41.0,61,89,4.0,US,1604208227
Asău,46.43,26.4,48.2,76,90,13.87,RO,1604208174
Saint-Leu,-21.15,55.28,75.2,57,40,9.17,RE,1604208228
Kuminskiy,58.67,66.57,34.11,97,100,9.86,RU,1604208228
San Diego de Los Baños,22.65,-83.37,73.04,94,3,4.0,CU,1604208228
Saint Paul Harbor,57.79,-152.41,32.0,85,1,4.7,US,1604208063
Kamyshevatskaya,46.41,37.96,55.04,83,100,10.83,RU,1604208229
Nanortalik,60.14,-45.24,28.76,90,61,22.66,GL,1604208230
Yamada,39.47,141.95,60.96,54,100,12.21,JP,1604208230
Coruripe,-10.13,-36.18,76.82,85,99,11.36,BR,1604207943
Geraldton,-28.77,114.6,59.0,87,75,10.29,AU,1604208230
Dalbandin,28.89,64.41,66.27,20,0,7.61,PK,1604208123
Ponta do Sol,32.67,-17.1,71.01,42,20,5.82,PT,1604208231
Puliyankudi,9.17,77.42,85.42,59,82,3.89,IN,1604208232
San Cristobal,7.77,-72.22,67.15,88,100,1.39,VE,1604208018
Morondava,-20.28,44.28,78.91,65,31,3.13,MG,1604208232
San Jose,37.34,-121.89,66.0,55,1,1.77,US,1604208002
Lewisporte,49.25,-55.05,33.8,74,75,14.99,CA,1604208233
Port Hedland,-20.32,118.57,86.0,58,0,24.16,AU,1604208233
Lüderitz,-26.65,15.16,62.91,49,0,13.15,NA,1604208140
Saskylakh,71.92,114.08,-7.26,87,42,8.52,RU,1604208234
Gewanē,10.17,40.65,79.56,50,0,8.05,ET,1604208234
Palora,-1.7,-77.93,65.3,96,100,1.72,EC,1604208235
Vaitape,-16.52,-151.75,80.31,76,4,21.27,PF,1604207977
Orapa,-21.28,25.37,72.28,47,63,23.4,BW,1604208236
Ostrovnoy,68.05,39.51,28.36,94,80,20.54,RU,1604208114
Half Moon Bay,37.46,-122.43,61.0,62,1,3.85,US,1604208236
Albania,41.0,20.0,48.2,93,0,2.24,AL,1604208237
East London,-33.02,27.91,62.6,77,20,9.17,ZA,1604208237
Inverell,-29.78,151.12,73.0,43,53,8.99,AU,1604208237
Bandarbeyla,9.49,50.81,79.25,76,5,18.1,SO,1604208238
Mnogovershinnyy,53.94,139.92,34.75,98,100,4.74,RU,1604208238
Jumla,29.27,82.18,67.08,26,0,3.06,NP,1604208238
Key Largo,25.09,-80.45,82.0,1,12,10.0,US,1604208239
Tasiilaq,65.61,-37.64,32.0,97,100,3.36,GL,1604208105
Xuchang,34.02,113.82,68.0,24,0,6.71,CN,1604208240
Ayacucho,-13.16,-74.22,55.78,57,81,3.85,PE,1604208240
Bluefield,37.27,-81.22,42.8,81,1,8.05,US,1604208240
Durango,24.83,-104.83,54.18,48,46,1.14,MX,1604208040
Verkhnevilyuysk,63.45,120.32,4.86,89,68,4.72,RU,1604208241
Chālūs,36.66,51.42,64.4,100,90,2.24,IR,1604208241
Bathsheba,13.22,-59.52,78.8,88,75,18.34,BB,1604208242
Hualmay,-11.1,-77.61,60.71,87,82,6.6,PE,1604208242
Laguna,38.42,-121.42,59.0,66,1,3.2,US,1604208242
Dwārka,22.24,68.97,85.68,39,0,9.01,IN,1604208243
Khasan,42.43,130.64,57.24,49,58,0.65,RU,1604208243
Plácido de Castro,-10.34,-67.19,70.43,71,100,4.23,BR,1604208243
Robertsport,6.75,-11.37,78.48,83,0,6.4,LR,1604208244
Zhangjiakou Shi Xuanhua Qu,40.61,115.04,51.64,35,0,15.05,CN,1604208244
Souillac,-20.52,57.52,73.4,69,40,18.34,MU,1604208244
Berlevåg,70.86,29.09,28.4,86,0,16.11,NO,1604208245
Sampit,-2.53,112.95,87.13,73,64,1.57,ID,1604208245
Pangoa,-12.12,-73.0,63.68,87,72,2.37,PE,1604208246
Lafiagi,8.87,5.42,74.41,62,99,2.26,NG,1604208246
Soyo,-6.13,12.37,77.14,85,100,8.52,AO,1604208247
Itaituba,-4.28,-55.98,78.57,76,100,1.92,BR,1604208247
Srandakan,-7.94,110.25,84.92,68,16,7.47,ID,1604208247
Somerset,40.57,-74.55,37.0,92,90,3.36,US,1604208248
Krasnovishersk,60.41,57.08,30.6,96,98,6.62,RU,1604208248
Baykit,61.67,96.37,10.62,90,76,4.92,RU,1604208248
Poum,-20.23,164.02,78.73,76,20,14.0,NC,1604208249
Lima,-12.04,-77.03,62.6,82,90,8.05,PE,1604207980
Surin,14.88,103.49,87.01,93,66,6.8,TH,1604208222
Bethel,41.37,-73.41,36.0,86,75,2.06,US,1604208250
Udachny,66.42,112.4,3.2,84,0,6.71,RU,1604208250
Constitución,-35.33,-72.42,53.04,86,3,2.57,CL,1604208250
Panzós,15.4,-89.67,71.67,86,97,2.26,GT,1604208251
Saint Stephen,50.33,-4.9,59.0,93,100,24.16,GB,1604208251
Salaberry-de-Valleyfield,45.25,-74.13,33.8,86,0,2.24,CA,1604208251
Ahipara,-35.17,173.17,68.47,68,0,4.14,NZ,1604208186
Esperance,-33.87,121.9,75.2,57,92,14.99,AU,1604208252
Agadez,19.75,10.25,62.02,42,0,10.18,NE,1604208252
Laas,46.62,10.7,41.0,40,40,5.82,IT,1604208253
Mehamn,71.04,27.85,36.46,81,0,12.26,NO,1604208166
Kodarmā,24.47,85.6,81.14,52,5,7.27,IN,1604207969
Husavik,66.04,-17.34,39.2,86,90,12.75,IS,1604208254
Tanabe,33.73,135.37,73.4,49,20,14.99,JP,1604208254
Aklavik,68.22,-135.01,-4.0,83,76,2.24,CA,1604208200
Tuatapere,-46.13,167.68,48.99,93,95,10.0,NZ,1604208141
Ialibu,-6.28,143.99,66.74,90,14,2.91,PG,1604208255
Taoudenni,22.68,-3.98,71.49,24,32,14.0,ML,1604208256
Takaka,-40.85,172.8,60.01,70,100,8.99,NZ,1604208256
Beira,-19.84,34.84,77.0,78,75,14.99,MZ,1604208257
Bambanglipuro,-7.95,110.28,85.01,67,17,7.07,ID,1604208257
São João da Barra,-21.64,-41.05,69.53,87,100,13.91,BR,1604208257
Janaúba,-15.8,-43.31,70.5,90,96,3.31,BR,1604208258
Bibiani,6.46,-2.32,71.47,100,58,0.76,GH,1604208258
Marrakesh,31.63,-8.01,57.2,50,0,3.36,MA,1604208258
Buraidah,26.33,43.98,64.4,42,0,3.36,SA,1604208259
Bogorodskoye,56.55,37.88,39.69,90,99,7.18,RU,1604208259
Arinos,-15.92,-46.11,71.06,90,100,1.45,BR,1604208259
Grevená,40.08,21.43,54.0,75,20,2.55,GR,1604208084
Westport,41.14,-73.36,42.8,70,90,7.05,US,1604208063
Araguaçu,-12.93,-49.83,71.87,92,100,2.66,BR,1604208260
Bataiporã,-22.3,-53.27,64.31,78,6,6.22,BR,1604208261
Cherskiy,68.75,161.3,10.02,87,100,1.16,RU,1604208261
Prymors'k,46.73,36.34,51.64,80,83,4.81,UA,1604208261
Mayo,38.89,-76.51,52.0,81,90,9.17,US,1604208262
Lorengau,-2.02,147.27,85.53,71,33,7.29,PG,1604208262
Surenavan,39.75,44.8,50.0,61,20,3.91,AM,1604208263
Camacha,33.08,-16.33,66.2,93,20,4.7,PT,1604208263
Chapais,49.78,-74.85,28.4,63,90,17.22,CA,1604208263
Dingle,11.0,122.67,82.87,81,100,12.06,PH,1604208264
Mandalgovi,45.76,106.27,29.34,71,16,21.7,MN,1604208264
Pesquería,25.78,-100.05,64.4,52,5,1.86,MX,1604208264
Penzance,50.12,-5.54,57.2,100,100,31.09,GB,1604208184
Samarai,-10.62,150.67,83.35,76,89,9.42,PG,1604208265
Grozeşti,44.65,23.32,37.4,100,90,3.36,RO,1604208265
Vetlanda,57.43,15.08,51.01,100,100,10.29,SE,1604208266
Sangīn,32.07,64.84,64.02,21,0,1.45,AF,1604208266
Sobolevo,54.43,31.9,40.89,92,96,12.37,RU,1604208266
Luganville,-15.53,167.17,84.2,74,20,10.29,VU,1604208267
Manono,-7.3,27.42,71.53,87,99,2.55,CD,1604208267
Juneau,58.3,-134.42,46.4,87,90,8.05,US,1604208268
Masallātah,32.62,14.0,63.09,75,4,4.65,LY,1604208269
Kualakapuas,-3.01,114.39,91.89,53,100,2.53,ID,1604208269
Dingli,35.86,14.38,64.0,88,20,6.93,MT,1604208269
Santa Maria,-29.68,-53.81,52.0,93,0,5.73,BR,1604208270
Bafra,41.57,35.91,51.8,93,0,3.36,TR,1604208270
Zhezkazgan,47.8,67.71,44.37,48,3,6.15,KZ,1604208270
Sur,22.57,59.53,79.84,37,0,3.6,OM,1604208271
Mudon,16.26,97.72,86.58,70,29,1.88,MM,1604208271
Vardø,70.37,31.11,28.4,86,0,16.11,NO,1604208271
Champasak,14.75,106.0,86.0,66,20,2.24,LA,1604208272
Broome,42.25,-75.83,36.0,95,1,8.05,US,1604208272
Angoche,-16.23,39.91,81.59,63,25,0.85,MZ,1604208272
Jalu,29.03,21.55,60.49,71,12,6.2,LY,1604208273
Turochak,52.26,87.12,35.22,86,80,1.77,RU,1604208273
Moerai,-22.43,-151.33,73.6,85,100,25.79,PF,1604208273
Yangjiang,21.85,111.97,81.0,63,26,7.45,CN,1604208274
Soure,-0.72,-48.52,80.17,81,11,10.49,BR,1604208274
Goroka,-6.08,145.39,71.64,78,63,4.07,PG,1604208274
León,21.12,-101.67,66.2,37,5,8.05,MX,1604208027
Maniitsoq,65.42,-52.9,19.92,94,100,10.49,GL,1604208275
Champaign,40.13,-88.2,53.01,66,90,18.34,US,1604208276
Uthal,25.81,66.62,86.54,13,0,5.7,PK,1604208276
Tabat,-2.63,115.23,90.23,56,100,2.26,ID,1604208276
Nago,26.59,127.98,82.4,54,1,18.34,JP,1604208205
Searcy,35.25,-91.74,50.0,100,1,3.36,US,1604208277
Livadeia,38.44,22.87,55.99,76,20,5.82,GR,1604208277
Olafsvik,64.89,-23.71,41.63,76,71,12.33,IS,1604208278
Dorogino,54.36,83.32,32.07,98,81,12.41,RU,1604208278
Cabo San Lucas,22.89,-109.91,75.99,75,6,4.03,MX,1604208165
Garoowe,8.41,48.48,77.14,62,0,10.36,SO,1604208279
Valdosta,30.83,-83.28,64.4,88,90,6.93,US,1604208280
Seoul,37.57,126.98,57.2,93,90,7.74,KR,1604208000
Berkovica,44.62,18.43,51.8,93,40,2.24,BA,1604208281
Chernushka,56.51,56.08,34.9,87,91,11.25,RU,1604208281
Novy Urengoy,66.08,76.63,23.16,98,73,11.05,RU,1604208281
Dunedin,-45.87,170.5,55.99,78,95,16.75,NZ,1604208154
Ikeda,34.82,135.43,71.6,49,75,8.05,JP,1604208282
Sorong,-0.88,131.25,84.52,77,55,11.65,ID,1604207988
La Asuncion,11.03,-63.86,82.4,88,92,14.99,VE,1604208283
Ahtopol,42.1,27.95,44.01,93,0,8.05,BG,1604208283
Sola,-13.88,167.55,81.57,78,89,16.75,VU,1604208284
Ambilobe,-13.2,49.05,81.36,39,23,4.63,MG,1604208284
Brockville,44.58,-75.68,37.99,69,1,12.75,CA,1604208249
Asilah,35.47,-6.03,60.8,82,0,4.7,MA,1604208284
Alberton,46.82,-64.07,39.2,48,12,19.46,CA,1604208285
High Level,58.52,-117.14,23.0,100,90,2.24,CA,1604208285
Atar,20.52,-13.05,80.13,17,100,9.95,MR,1604208183
Anjār,23.13,70.02,86.16,25,0,7.83,IN,1604208259
Marawi,8.0,124.29,89.01,64,99,5.99,PH,1604208287
Shelopugino,51.65,117.56,26.64,86,100,9.08,RU,1604208287
Havre-St-Pierre,50.23,-63.6,14.0,85,1,9.33,CA,1604208287
Hirara,24.8,125.28,80.6,61,20,16.11,JP,1604208288
Niterói,-22.88,-43.1,68.0,94,90,3.36,BR,1604208288
Punto Fijo,11.7,-70.2,82.9,77,100,13.73,VE,1604208289
Khani,41.96,42.96,53.6,100,75,4.7,GE,1604208289
Lozuvatka,48.06,33.29,46.4,93,90,3.4,UA,1604208289
Banjar,-8.19,114.97,89.85,47,56,5.14,ID,1604208290
Arica,-18.48,-70.3,57.99,82,29,1.99,CL,1604208048
Sitka,57.05,-135.33,46.4,93,90,4.7,US,1604208144
Maglie,40.12,18.3,55.99,100,20,4.7,IT,1604208291
Cockburn Town,21.46,-71.14,82.22,78,99,20.83,TC,1604208091
Linjiang,41.81,126.91,49.84,46,6,12.1,CN,1604208292
Newport,51.59,-3.0,55.0,97,100,4.0,GB,1604208292
Ponta Delgada,37.73,-25.67,68.0,100,75,17.22,PT,1604208000
Hasaki,35.73,140.83,69.01,56,40,5.82,JP,1604208293
Takoradze,4.88,-1.76,77.45,89,73,4.56,GH,1604208293
Kasongo-Lunda,-6.47,16.82,69.89,92,75,1.1,CD,1604208294
Carutapera,-1.2,-46.02,76.71,88,3,5.26,BR,1604208294
Preobrazheniye,42.9,133.91,55.89,76,49,13.04,RU,1604208295
Ha Giang,22.83,104.98,78.76,66,96,3.18,VN,1604208134
Thoen,17.61,99.22,87.51,62,23,2.75,TH,1604208295
Abhā,18.22,42.51,64.4,49,0,2.64,SA,1604208296
Isla Vista,34.41,-119.86,57.2,82,1,4.23,US,1604208296
Batagay-Alyta,67.8,130.41,1.02,92,100,2.21,RU,1604208296
Sept-Îles,50.2,-66.38,26.6,68,52,3.36,CA,1604208297
Rupert,42.62,-113.68,37.4,55,1,1.03,US,1604208297
Yangi Marg`ilon,40.43,71.72,57.2,20,59,2.24,UZ,1604208298
Pudozh,61.81,36.53,29.17,97,0,3.71,RU,1604208298
Praia,14.92,-23.51,75.2,78,0,18.34,CV,1604208299
Tezu,27.92,96.17,72.95,81,100,0.96,IN,1604208299
Kruisfontein,-34.0,24.73,62.01,87,0,1.01,ZA,1604208300
Fukuechō,32.69,128.84,71.6,73,40,12.75,JP,1604208300
Swift Current,50.28,-107.8,26.6,73,20,9.17,CA,1604208170
Belfast,54.58,-5.93,53.01,93,100,25.28,GB,1604208301
Formosa,-26.18,-58.18,60.8,82,0,6.93,AR,1604208301
Nortelândia,-14.45,-56.8,72.41,74,29,2.89,BR,1604208302
Eureka,40.8,-124.16,44.6,100,1,3.36,US,1604208302
Daru,-9.08,143.21,84.2,74,32,14.2,PG,1604208302
Vanimo,-2.67,141.3,86.56,65,100,9.64,PG,1604208179
Talcahuano,-36.72,-73.12,53.6,93,6,6.93,CL,1604208303
Mitú,1.2,-70.17,72.46,98,98,2.48,CO,1604208303
Saquarema,-22.92,-42.51,69.1,83,59,8.37,BR,1604208176
Nederland,29.97,-93.99,55.4,100,1,3.36,US,1604208304
Araçuaí,-16.85,-42.07,71.38,91,100,2.08,BR,1604208305
Vangaindrano,-23.35,47.6,71.53,66,10,5.73,MG,1604208305
Sarangani,5.4,125.46,84.42,74,100,18.59,PH,1604208305
Valentigney,47.46,6.83,54.0,87,90,4.7,FR,1604208306
Akçakoca,41.09,31.12,55.24,80,99,10.51,TR,1604208306
Koungheul,13.98,-14.8,77.63,31,80,4.0,SN,1604208306
Oranjemund,-28.55,16.43,61.09,62,0,7.14,NA,1604208307
Gamba,-2.65,10.0,76.3,91,99,7.36,GA,1604208307
Port-Cartier,50.03,-66.87,26.6,85,75,6.93,CA,1604208307
Eganville,45.53,-77.1,33.8,80,20,10.29,CA,1604208308
Acapulco de Juárez,16.86,-99.89,79.45,78,0,3.87,MX,1604208101
Codrington,-38.27,141.97,60.48,76,34,11.68,AU,1604208131
Srīsailain,16.08,78.87,82.81,48,5,4.29,IN,1604208309
Yerofey Pavlovich,53.97,121.97,19.99,81,100,12.39,RU,1604208309
Boddam,57.47,-1.78,46.4,87,75,23.04,GB,1604208310
Beloha,-25.17,45.05,76.42,49,0,8.63,MG,1604208310
Sechura,-5.56,-80.82,63.77,85,89,9.1,PE,1604208310
Port Macquarie,-31.43,152.92,73.99,51,43,1.99,AU,1604208311
Salalah,17.02,54.09,84.2,32,0,2.24,OM,1604208311
Goulburn,-34.75,149.72,66.99,67,57,1.01,AU,1604208312
Chara,56.91,118.26,9.72,88,53,3.94,RU,1604208312
Guntakal,15.17,77.38,82.45,52,0,3.15,IN,1604208312
Brae,60.4,-1.35,50.0,71,85,25.28,GB,1604208313
Alofi,-19.06,-169.92,75.2,94,40,14.99,NU,1604208313
Gilbués,-9.83,-45.34,70.47,97,100,3.22,BR,1604208313
Voznesen'ye,61.01,35.48,32.34,95,0,4.85,RU,1604208314
Pont-Saint-Esprit,44.25,4.65,55.4,87,90,2.24,FR,1604208314
Lashio,22.93,97.75,79.38,66,72,1.59,MM,1604208314
Manjacaze,-24.71,33.88,74.93,68,62,7.9,MZ,1604208315
Denpasar,-8.65,115.22,84.24,65,21,8.05,ID,1604208315
Kattivākkam,13.22,80.32,89.6,59,20,3.36,IN,1604208315
Yārāda,17.65,83.27,91.4,43,7,4.7,IN,1604208316
Zhangjiakou,40.81,114.88,49.15,38,0,14.79,CN,1604208316
Fereydūnkenār,36.69,52.52,69.8,43,0,2.24,IR,1604208316
Grand Gaube,-20.01,57.66,75.0,56,16,4.0,MU,1604208317
Nāndūra Buzurg,20.83,76.45,83.12,36,0,3.42,IN,1604208317
Nhulunbuy,-12.23,136.77,95.0,30,40,16.11,AU,1604208317
Ancud,-41.87,-73.82,46.4,81,0,5.82,CL,1604208166
Christchurch,-43.53,172.63,60.01,72,14,16.11,NZ,1604208318
Tiébissou,7.16,-5.23,69.8,100,21,4.7,CI,1604208318
Omsukchan,62.53,155.8,19.18,95,100,6.87,RU,1604208319
Lavrentiya,65.58,-171.0,22.21,91,0,8.03,RU,1604208319
Tabou,4.42,-7.35,77.07,88,31,5.66,CI,1604208158
Manzhouli,49.6,117.43,29.95,87,100,14.2,CN,1604208319
Fortuna,40.6,-124.16,44.6,100,1,3.36,US,1604208320
Fredericton,45.95,-66.67,28.4,67,1,3.36,CA,1604208021
Altamont,42.21,-121.74,41.0,74,1,4.7,US,1604208321
Port Lincoln,-34.73,135.87,64.0,66,3,11.7,AU,1604208321
Kunashak,55.7,61.55,39.2,93,75,8.95,RU,1604208322
Maningrida,-12.07,134.27,92.62,43,40,13.4,AU,1604208322
Faanui,-16.48,-151.75,79.48,78,4,21.18,PF,1604208139
Villa Rica,33.73,-84.92,57.99,79,89,6.35,US,1604208323
Sovetskiy,61.36,63.58,30.22,95,28,9.69,RU,1604208323
Puerto Madryn,-42.77,-65.04,67.8,33,0,19.73,AR,1604208278
Safi,32.3,-9.24,63.86,90,19,13.49,MA,1604208145
Barra de Tecoanapa,16.52,-98.75,78.01,84,1,4.68,MX,1604208068
Lompoc,34.64,-120.46,59.0,81,1,5.82,US,1604208316
Dhidhdhoo,6.88,73.1,82.65,68,17,3.78,MV,1604208068
Kisangani,0.52,25.2,70.57,89,86,0.98,CD,1604208325
Yabēlo,4.88,38.08,61.41,87,89,9.62,ET,1604208326
Rivadavia,-33.19,-68.46,64.4,36,0,7.09,AR,1604208039
Tall Kayf,37.08,41.07,68.0,24,40,10.29,TR,1604208326
Deqing,30.54,119.96,72.0,65,89,3.71,CN,1604208327
Narsaq,60.92,-46.05,26.6,86,78,1.14,GL,1604208327
Shakawe,-18.37,21.85,72.07,26,37,2.13,BW,1604208328
Yarim,14.3,44.38,54.68,38,0,6.58,YE,1604208328
Saint-Louis,16.33,-15.0,81.63,16,62,6.31,SN,1604208329
Saint-Ambroise,48.55,-71.33,30.2,79,79,6.93,CA,1604208329
Vila do Maio,15.13,-23.22,75.2,78,0,18.34,CV,1604208329
Sinjai,-5.12,120.25,88.92,56,57,8.66,ID,1604208330
Dawson Creek,55.77,-120.24,41.0,60,1,10.29,CA,1604208330
Petropavlovsk-Kamchatskiy,53.05,158.65,46.4,49,100,2.24,RU,1604208315
Yerbogachën,61.28,108.01,7.83,87,0,4.7,RU,1604208331
Mīnāb,27.15,57.08,86.0,40,0,3.11,IR,1604208331
Jurm,36.86,70.83,57.7,21,29,3.15,AF,1604208332
Bam,29.11,58.36,72.0,18,0,1.61,IR,1604208307
Mayor Pablo Lagerenza,-19.93,-60.77,65.84,46,0,5.3,PY,1604208332
Jiayuguan City,39.82,98.3,48.29,42,48,11.21,CN,1604208333
Nuuk,64.18,-51.72,23.0,85,100,13.87,GL,1604208334
Gryfice,53.92,15.2,50.0,100,90,9.17,PL,1604208212
Saint-François,46.42,3.91,55.4,71,0,9.17,FR,1604208334
Rome,43.21,-75.46,30.99,80,1,5.82,US,1604208334
Alhaurín de la Torre,36.66,-4.56,62.01,87,0,6.93,ES,1604208335
Kajaani,64.23,27.73,35.6,100,90,9.17,FI,1604208336
Rafsanjān,30.41,55.99,65.34,21,0,4.07,IR,1604208111
Cape Canaveral,28.41,-80.6,79.0,69,75,12.75,US,1604208336
St. George's,12.06,-61.75,80.6,88,75,13.87,GD,1604208337
Prince Rupert,54.32,-130.32,48.2,93,90,19.46,CA,1604208250
Staunton,38.15,-79.07,41.0,93,40,4.32,US,1604208337
Gornopravdinsk,60.05,69.9,32.76,97,100,7.23,RU,1604208338
Hammerfest,70.66,23.68,39.2,64,21,14.99,NO,1604208165
Harper,4.38,-7.72,77.05,88,30,6.17,LR,1604208113
Shahr-e Bābak,30.12,55.12,62.19,24,0,2.15,IR,1604208339
Sribne,50.66,32.92,47.1,91,100,11.72,UA,1604208340
Ulaangom,49.98,92.07,34.9,82,17,3.33,MN,1604208340
Mackenzie,55.3,-123.17,33.8,85,90,13.87,CA,1604208340
Mossamedes,-15.2,12.15,74.34,76,91,7.54,AO,1604208341
Esim,4.87,-2.24,77.34,86,98,3.13,GH,1604208341
Rønne,55.1,14.71,51.8,100,100,18.34,DK,1604208342
Tecpan,14.76,-90.99,64.99,93,75,11.41,GT,1604208342
Buin,-33.73,-70.75,61.0,81,0,5.82,CL,1604208176
Brigantine,39.41,-74.36,48.99,66,1,8.28,US,1604208343
Waitara,-38.92,174.25,55.99,77,100,11.99,NZ,1604208343
Port Hardy,50.7,-127.42,50.0,81,90,13.87,CA,1604208343
La Rioja,42.25,-2.5,51.01,100,0,6.73,ES,1604208344
Roald,62.58,6.13,53.6,62,77,14.99,NO,1604208344
Bartica,6.4,-58.62,77.0,94,20,2.24,GY,1604208344
Eyemouth,55.87,-2.09,46.99,88,100,14.0,GB,1604208345
San Luis Río Colorado,32.46,-114.78,73.4,27,1,7.0,MX,1604208345
Monrovia,6.3,-10.8,77.95,87,0,5.84,LR,1604208346
Manokwari,-0.87,134.08,85.42,69,63,11.45,ID,1604208346
Muros,42.78,-9.06,63.0,93,100,11.99,ES,1604208347
Daoukro,7.06,-3.96,70.41,98,27,1.66,CI,1604208347
Riberalta,-10.98,-66.1,68.99,84,100,1.32,BO,1604208347
Slyudyanka,51.66,103.71,25.41,87,96,6.04,RU,1604208348
Yuzhno-Kurilsk,44.03,145.86,53.47,70,100,12.41,RU,1604208348
Siuna,13.73,-84.78,72.97,94,100,3.13,NI,1604208348
Nantucket,41.28,-70.1,48.99,64,75,11.41,US,1604208349
Romodanovo,54.43,45.33,41.25,89,97,10.54,RU,1604208349
Manggar,-2.88,108.27,81.77,78,70,5.5,ID,1604208349
Diébougou,10.97,-3.25,73.65,34,14,1.97,BF,1604208350
Troitskoye,52.98,84.68,33.04,94,82,5.46,RU,1604208350
Yuncheng,35.02,110.99,63.52,28,69,8.7,CN,1604208351
Frontera,26.93,-101.45,66.0,50,71,1.14,MX,1604208351
Centralia,46.72,-122.95,44.6,87,19,4.34,US,1604208352
Bol,13.46,14.71,79.25,42,0,17.13,TD,1604208352
Thayetmyo,19.32,95.18,79.25,87,100,3.02,MM,1604208352
Solnechnyy,50.72,136.63,37.87,92,100,5.55,RU,1604208353
Booué,-0.09,11.94,71.42,96,100,1.88,GA,1604208353
Doctor Arroyo,23.67,-100.18,56.48,66,0,3.53,MX,1604208353
Mezen',65.85,44.24,30.04,96,80,9.44,RU,1604208354
Yakima,46.47,-120.67,41.0,69,1,5.82,US,1604208354
Muscle Shoals,34.74,-87.67,53.6,81,40,5.5,US,1604208354
Fatezh,52.09,35.86,46.4,93,90,20.13,RU,1604208355
Lata,40.16,-8.33,64.0,95,100,0.96,PT,1604208356
Abirāmam,9.47,78.45,87.8,66,20,1.45,IN,1604208356
Abalak,58.13,68.59,35.58,98,100,10.16,RU,1604208357
Tutóia,-2.76,-42.27,79.63,83,39,11.03,BR,1604208358
Muisne,0.6,-80.03,75.63,83,100,7.02,EC,1604208358
Borovskoy,53.8,64.15,35.82,84,97,9.37,KZ,1604208359
Saint-Augustin,51.23,-58.65,28.13,81,4,9.78,CA,1604208359
North Bend,43.41,-124.22,51.01,93,1,6.24,US,1604208360
Altagracia de Orituco,9.86,-66.38,72.68,94,100,3.58,VE,1604208360
Bandar-e Anzali,37.47,49.46,62.6,100,90,1.19,IR,1604208360
Bonavista,48.65,-53.11,33.01,74,44,9.17,CA,1604208361
Coquimbo,-29.95,-71.34,53.6,87,7,5.82,CL,1604208252
Torres,-29.34,-49.73,57.81,81,19,3.53,BR,1604208362
Osoyoos,49.03,-119.45,41.0,86,8,1.12,CA,1604208362
Ubari,26.59,12.78,55.13,68,0,6.55,LY,1604208362
Flin Flon,54.77,-101.86,11.32,96,0,4.76,CA,1604208363
Pedernales,18.04,-71.74,79.36,70,99,5.28,DO,1604208363
Vestmanna,62.16,-7.17,44.6,93,92,21.92,FO,1604208364
El Viejo,12.66,-87.17,75.02,91,100,1.68,NI,1604208364
Słupsk,54.46,17.03,47.46,75,81,15.28,PL,1604208364
Sicuani,-14.27,-71.23,40.37,81,97,0.74,PE,1604208365
Kudat,6.88,116.85,87.01,70,20,11.41,MY,1604208365
Jiuquan,39.74,98.52,50.4,38,28,6.35,CN,1604208366
Raudeberg,61.99,5.14,50.0,84,85,29.86,NO,1604208366
At-Bashi,41.17,75.81,39.56,45,21,0.76,KG,1604208366
Goya,-29.14,-59.26,55.54,87,0,5.17,AR,1604208367
Los Andes,-32.83,-70.6,60.01,99,0,0.6,CL,1604208367
